{"type":"FeatureCollection","features":[{"type":"Feature","geometry":{"type":"Point","coordinates":[-135.446774561776,59.2354825234634,0]},"properties":{"marker-color":"#ff8040","marker-size":"medium","marker-symbol":"city","name":"Haines","symbol":2,"main":16,"class":"First Class City","refresh_date":"2017-06-01 20:00:43.0","incorp_date":1910,"ancsa":"N","m8x11":"Y","mi_label":"Haines","pop":1429,"geom":""}},{"type":"Feature","geometry":{"type":"Point","coordinates":[-166.534596549162,53.8724522219721,0]},"properties":{"marker-color":"#ff8040","marker-size":"medium","marker-symbol":"city","name":"Unalaska","symbol":2,"main":100,"class":"First Class City","refresh_date":"2017-06-01 20:00:43.0","incorp_date":1942,"ancsa":"Y","m8x11":"Y","mi_label":"Unalaska","pop":4251,"geom":""}},{"type":"Feature","geometry":{"type":"Point","coordinates":[-149.995177117115,61.1811051509027,0]},"properties":{"marker-color":"#ff8040","marker-size":"medium","marker-symbol":"city","name":"Anchorage","symbol":4,"main":1,"class":"Unified Home Rule Municipality","refresh_date":"2017-06-01 20:00:43.0","incorp_date":1975,"ancsa":"N","m8x11":"Y","mi_label":"Anchorage","pop":254849,"geom":""}},{"type":"Feature","geometry":{"type":"Point","coordinates":[-148.383130179211,70.2363485064531,0]},"properties":{"marker-color":"#ff8040","marker-size":"medium","marker-symbol":"city","name":"Prudhoe Bay","symbol":0,"main":17,"class":" ","refresh_date":"2017-06-01 20:00:43.0","incorp_date":0,"ancsa":"N","m8x11":"Y","mi_label":"Prudhoe Bay","pop":47,"geom":""}},{"type":"Feature","geometry":{"type":"Point","coordinates":[-149.444210990945,60.103772570109,0]},"properties":{"marker-color":"#ff8040","marker-size":"medium","marker-symbol":"city","name":"Seward","symbol":3,"main":10,"class":"Home Rule City","refresh_date":"2017-06-01 20:00:43.0","incorp_date":1912,"ancsa":"N","m8x11":"Y","mi_label":"Seward","pop":2999,"geom":""}},{"type":"Feature","geometry":{"type":"Point","coordinates":[-145.548543410906,62.108693125486,0]},"properties":{"marker-color":"#ff8040","marker-size":"medium","marker-symbol":"city","name":"Glennallen","symbol":1,"main":100,"class":" ","refresh_date":"2017-06-01 20:00:43.0","incorp_date":0,"ancsa":"N","m8x11":"Y","mi_label":"Glennallen","pop":513,"geom":""}},{"type":"Feature","geometry":{"type":"Point","coordinates":[-134.42144864439,58.3016138363481,0]},"properties":{"marker-color":"#ff8040","marker-size":"medium","marker-symbol":"city","name":"Juneau","symbol":4,"main":3,"class":"Unified Home Rule Municipality","refresh_date":"2017-06-01 20:00:43.0","incorp_date":1970,"ancsa":"N","m8x11":"Y","mi_label":"Juneau","pop":29813,"geom":""}},{"type":"Feature","geometry":{"type":"Point","coordinates":[-131.647681908105,55.3418472003276,0]},"properties":{"marker-color":"#ff8040","marker-size":"medium","marker-symbol":"city","name":"Ketchikan","symbol":3,"main":11,"class":"Home Rule City","refresh_date":"2017-06-01 20:00:43.0","incorp_date":1900,"ancsa":"N","m8x11":"Y","mi_label":"Ketchikan","pop":8552,"geom":""}},{"type":"Feature","geometry":{"type":"Point","coordinates":[-135.331720120174,57.0526774181699,0]},"properties":{"marker-color":"#ff8040","marker-size":"medium","marker-symbol":"city","name":"Sitka","symbol":4,"main":13,"class":"Unified Home Rule Municipality","refresh_date":"2017-06-01 20:00:43.0","incorp_date":1971,"ancsa":"N","m8x11":"Y","mi_label":"Sitka","pop":8733,"geom":""}},{"type":"Feature","geometry":{"type":"Point","coordinates":[-145.759430219139,60.5422140159484,0]},"properties":{"marker-color":"#ff8040","marker-size":"medium","marker-symbol":"city","name":"Cordova","symbol":3,"main":9,"class":"Home Rule City","refresh_date":"2017-06-01 20:00:43.0","incorp_date":1909,"ancsa":"N","m8x11":"Y","mi_label":"Cordova","pop":2467,"geom":""}},{"type":"Feature","geometry":{"type":"Point","coordinates":[-146.350295432646,61.1303070135535,0]},"properties":{"marker-color":"#ff8040","marker-size":"medium","marker-symbol":"city","name":"Valdez","symbol":3,"main":8,"class":"Home Rule City","refresh_date":"2017-06-01 20:00:43.0","incorp_date":1901,"ancsa":"N","m8x11":"Y","mi_label":"Valdez","pop":4184,"geom":""}},{"type":"Feature","geometry":{"type":"Point","coordinates":[-151.550344780657,59.6418742690453,0]},"properties":{"marker-color":"#ff8040","marker-size":"medium","marker-symbol":"city","name":"Homer","symbol":2,"main":20,"class":"First Class City","refresh_date":"2017-06-01 20:00:43.0","incorp_date":1964,"ancsa":"N","m8x11":"Y","mi_label":"Homer","pop":4126,"geom":""}},{"type":"Feature","geometry":{"type":"Point","coordinates":[-151.260530390023,60.5538722891809,0]},"properties":{"marker-color":"#ff8040","marker-size":"medium","marker-symbol":"city","name":"Kenai","symbol":3,"main":12,"class":"Home Rule City","refresh_date":"2017-06-01 20:00:43.0","incorp_date":1960,"ancsa":"N","m8x11":"Y","mi_label":"Kenai","pop":6971,"geom":""}},{"type":"Feature","geometry":{"type":"Point","coordinates":[-142.987705354777,63.3362901294056,0]},"properties":{"marker-color":"#ff8040","marker-size":"medium","marker-symbol":"city","name":"Tok","symbol":1,"main":100,"class":" ","refresh_date":"2017-06-01 20:00:43.0","incorp_date":0,"ancsa":"N","m8x11":"Y","mi_label":"Tok","pop":1216,"geom":""}},{"type":"Feature","geometry":{"type":"Point","coordinates":[-141.202262462059,64.7877482734813,0]},"properties":{"marker-color":"#ff8040","marker-size":"medium","marker-symbol":"city","name":"Eagle","symbol":1,"main":100,"class":"Second Class City","refresh_date":"2017-06-01 20:00:43.0","incorp_date":1901,"ancsa":"N","m8x11":"Y","mi_label":"Eagle","pop":165,"geom":""}},{"type":"Feature","geometry":{"type":"Point","coordinates":[-147.718732562276,64.8373374952898,0]},"properties":{"marker-color":"#ff8040","marker-size":"medium","marker-symbol":"city","name":"Fairbanks","symbol":3,"main":2,"class":"Home Rule City","refresh_date":"2017-06-01 20:00:43.0","incorp_date":1903,"ancsa":"N","m8x11":"Y","mi_label":"Fairbanks","pop":31850,"geom":""}},{"type":"Feature","geometry":{"type":"Point","coordinates":[-162.599358759404,66.8976496415849,0]},"properties":{"marker-color":"#ff8040","marker-size":"medium","marker-symbol":"city","name":"Kotzebue","symbol":1,"main":5,"class":"Second Class City","refresh_date":"2017-06-01 20:00:43.0","incorp_date":1958,"ancsa":"Y","m8x11":"Y","mi_label":"Kotzebue","pop":2885,"geom":""}},{"type":"Feature","geometry":{"type":"Point","coordinates":[-156.792050643308,71.2901080670423,0]},"properties":{"marker-color":"#ff8040","marker-size":"medium","marker-symbol":"city","name":"Barrow","symbol":2,"main":4,"class":"First Class City","refresh_date":"2017-06-01 20:00:43.0","incorp_date":1958,"ancsa":"Y","m8x11":"Y","mi_label":"Barrow","pop":4380,"geom":""}},{"type":"Feature","geometry":{"type":"Point","coordinates":[-165.408960887288,64.5003312290394,0]},"properties":{"marker-color":"#ff8040","marker-size":"medium","marker-symbol":"city","name":"Nome","symbol":2,"main":6,"class":"First Class City","refresh_date":"2017-06-01 20:00:43.0","incorp_date":1901,"ancsa":"Y","m8x11":"Y","mi_label":"Nome","pop":3595,"geom":""}},{"type":"Feature","geometry":{"type":"Point","coordinates":[-155.598171667517,62.955733746679,0]},"properties":{"marker-color":"#ff8040","marker-size":"medium","marker-symbol":"city","name":"McGrath","symbol":1,"main":100,"class":"Second Class City","refresh_date":"2017-06-01 20:00:43.0","incorp_date":1975,"ancsa":"Y","m8x11":"Y","mi_label":"McGrath","pop":456,"geom":""}},{"type":"Feature","geometry":{"type":"Point","coordinates":[-161.758034292941,60.7914540454229,0]},"properties":{"marker-color":"#ff8040","marker-size":"medium","marker-symbol":"city","name":"Bethel","symbol":1,"main":15,"class":"Second Class City","refresh_date":"2017-06-01 20:00:43.0","incorp_date":1957,"ancsa":"Y","m8x11":"Y","mi_label":"Bethel","pop":5277,"geom":""}},{"type":"Feature","geometry":{"type":"Point","coordinates":[-152.409283327277,57.7892277318186,0]},"properties":{"marker-color":"#ff8040","marker-size":"medium","marker-symbol":"city","name":"Kodiak","symbol":3,"main":7,"class":"Home Rule City","refresh_date":"2017-06-01 20:00:43.0","incorp_date":1940,"ancsa":"N","m8x11":"Y","mi_label":"Kodiak","pop":6749,"geom":""}},{"type":"Feature","geometry":{"type":"Point","coordinates":[-162.723081196371,55.1849491316816,0]},"properties":{"marker-color":"#ff8040","marker-size":"medium","marker-symbol":"city","name":"Cold Bay","symbol":1,"main":100,"class":"Second Class City","refresh_date":"2017-06-01 20:00:43.0","incorp_date":1981,"ancsa":"N","m8x11":"Y","mi_label":"Cold Bay","pop":85,"geom":""}},{"type":"Feature","geometry":{"type":"Point","coordinates":[-158.459584469112,59.0389579582309,0]},"properties":{"marker-color":"#ff8040","marker-size":"medium","marker-symbol":"city","name":"Dillingham","symbol":2,"main":18,"class":"First Class City","refresh_date":"2017-06-01 20:00:43.0","incorp_date":1963,"ancsa":"Y","m8x11":"Y","mi_label":"Dillingham","pop":2252,"geom":""}}]}