{"type":"FeatureCollection","features":[{"type":"Feature","geometry":{"type":"Point","coordinates":[174.086390236067,52.3483888292773,0]},"properties":{"name":"Buldir","x_lat":52.35,"x_long":185.9106,"mi_label":"Buldir","refresh_date":"2011-03-23 14:25:12.0","geom":""}},{"type":"Feature","geometry":{"type":"Point","coordinates":[174.056987727759,52.3633876112339,0]},"properties":{"name":"East Cape Volcano","x_lat":52.365,"x_long":185.94,"mi_label":"East Cape Volcano","refresh_date":"2011-03-23 14:25:12.0","geom":""}},{"type":"Feature","geometry":{"type":"Point","coordinates":[176.395127865435,52.1012261671352,0]},"properties":{"name":"Kiska","x_lat":52.1028,"x_long":183.6019,"mi_label":"Kiska","refresh_date":"2011-03-23 14:25:12.0","geom":""}},{"type":"Feature","geometry":{"type":"Point","coordinates":[177.861566940131,52.0137382938542,0]},"properties":{"name":"Segula","x_lat":52.0153,"x_long":182.1356,"mi_label":"Segula","refresh_date":"2011-03-23 14:25:12.0","geom":""}},{"type":"Feature","geometry":{"type":"Point","coordinates":[177.454043424218,51.9484249050506,0]},"properties":{"name":"Little Sitkin","x_lat":51.95,"x_long":182.5431,"mi_label":"Little Sitkin","refresh_date":"2011-03-23 14:25:12.0","geom":""}},{"type":"Feature","geometry":{"type":"Point","coordinates":[178.366585797567,51.9548478884227,0]},"properties":{"name":"Semisopochnoi","x_lat":51.9564,"x_long":181.6306,"mi_label":"Semisopochnoi","refresh_date":"2011-03-23 14:25:12.0","geom":""}},{"type":"Feature","geometry":{"type":"Point","coordinates":[-178.796515028023,51.7888242851357,0]},"properties":{"name":"Gareloi","x_lat":51.7903,"x_long":178.7939,"mi_label":"Gareloi","refresh_date":"2011-03-23 14:25:12.0","geom":""}},{"type":"Feature","geometry":{"type":"Point","coordinates":[-178.195872895096,51.8741644549891,0]},"properties":{"name":"Sajaka","x_lat":51.8756,"x_long":178.1933,"mi_label":"Sajaka","refresh_date":"2011-03-23 14:25:12.0","geom":""}},{"type":"Feature","geometry":{"type":"Point","coordinates":[-178.148362952912,51.8835672140892,0]},"properties":{"name":"Tanaga","x_lat":51.885,"x_long":178.1458,"mi_label":"Tanaga","refresh_date":"2011-03-23 14:25:12.0","geom":""}},{"type":"Feature","geometry":{"type":"Point","coordinates":[-178.008145032641,51.8713656847546,0]},"properties":{"name":"Takawangha","x_lat":51.8728,"x_long":178.0056,"mi_label":"Takawangha","refresh_date":"2011-03-23 14:25:12.0","geom":""}},{"type":"Feature","geometry":{"type":"Point","coordinates":[-177.440807164989,51.9085924549831,0]},"properties":{"name":"Bobrof","x_lat":51.91,"x_long":177.4383,"mi_label":"Bobrof","refresh_date":"2011-03-23 14:25:12.0","geom":""}},{"type":"Feature","geometry":{"type":"Point","coordinates":[-177.1702952922,51.9214023094619,0]},"properties":{"name":"Kanaga","x_lat":51.9228,"x_long":177.1678,"mi_label":"Kanaga","refresh_date":"2011-03-23 14:25:12.0","geom":""}},{"type":"Feature","geometry":{"type":"Point","coordinates":[-176.749184766494,51.9425158715428,0]},"properties":{"name":"Moffett","x_lat":51.9439,"x_long":176.7467,"mi_label":"Moffett","refresh_date":"2011-03-23 14:25:12.0","geom":""}},{"type":"Feature","geometry":{"type":"Point","coordinates":[-176.594187534105,51.9864228039069,0]},"properties":{"name":"Adagdak","x_lat":51.9878,"x_long":176.5917,"mi_label":"Adagdak","refresh_date":"2011-03-23 14:25:12.0","geom":""}},{"type":"Feature","geometry":{"type":"Point","coordinates":[-176.132463771486,52.0747580820294,0]},"properties":{"name":"Great Sitkin","x_lat":52.0761,"x_long":176.13,"mi_label":"Great Sitkin","refresh_date":"2011-03-23 14:25:12.0","geom":""}},{"type":"Feature","geometry":{"type":"Point","coordinates":[-175.510743155335,52.1761914036009,0]},"properties":{"name":"Kasatochi","x_lat":52.1775,"x_long":175.5083,"mi_label":"Kasatochi","refresh_date":"2011-03-23 14:25:12.0","geom":""}},{"type":"Feature","geometry":{"type":"Point","coordinates":[-175.045726293999,52.2254101058288,0]},"properties":{"name":"Koniuji","x_lat":52.2267,"x_long":175.0433,"mi_label":"Koniuji","refresh_date":"2011-03-23 14:25:12.0","geom":""}},{"type":"Feature","geometry":{"type":"Point","coordinates":[-174.156594067191,52.3798431355246,0]},"properties":{"name":"Korovin","x_lat":52.3811,"x_long":174.1542,"mi_label":"Korovin","refresh_date":"2011-03-23 14:25:12.0","geom":""}},{"type":"Feature","geometry":{"type":"Point","coordinates":[-174.139082090272,52.3304437067512,0]},"properties":{"name":"Kluichef","x_lat":52.3317,"x_long":174.1367,"mi_label":"Kluichef","refresh_date":"2011-03-23 14:25:12.0","geom":""}},{"type":"Feature","geometry":{"type":"Point","coordinates":[-174.131583904002,52.3090425466059,0]},"properties":{"name":"Konia","x_lat":52.3103,"x_long":174.1292,"mi_label":"Konia","refresh_date":"2011-03-23 14:25:12.0","geom":""}},{"type":"Feature","geometry":{"type":"Point","coordinates":[-174.030181475439,52.3126445508182,0]},"properties":{"name":"Sarichef","x_lat":52.3139,"x_long":174.0278,"mi_label":"Sarichef","refresh_date":"2011-03-23 14:25:12.0","geom":""}},{"type":"Feature","geometry":{"type":"Point","coordinates":[-172.512102509565,52.3140986002675,0]},"properties":{"name":"Seguam (Pyre Pk)","x_lat":52.3153,"x_long":172.5097,"mi_label":"Seguam (Pyre Pk)","refresh_date":"2011-03-23 14:25:12.0","geom":""}},{"type":"Feature","geometry":{"type":"Point","coordinates":[-172.362105282126,52.3321031966175,0]},"properties":{"name":"Sequam East","x_lat":52.3333,"x_long":172.3597,"mi_label":"Sequam East","refresh_date":"2011-03-23 14:25:12.0","geom":""}},{"type":"Feature","geometry":{"type":"Point","coordinates":[-171.254545593421,52.4988544219545,0]},"properties":{"name":"Amukta","x_lat":52.5,"x_long":171.2522,"mi_label":"Amukta","refresh_date":"2011-03-23 14:25:12.0","geom":""}},{"type":"Feature","geometry":{"type":"Point","coordinates":[-171.135653770496,52.5755610107524,0]},"properties":{"name":"Chagulak","x_lat":52.5767,"x_long":171.1333,"mi_label":"Chagulak","refresh_date":"2011-03-23 14:25:12.0","geom":""}},{"type":"Feature","geometry":{"type":"Point","coordinates":[-170.63094340213,52.64168087581,0]},"properties":{"name":"Yunaska","x_lat":52.6428,"x_long":170.6286,"mi_label":"Yunaska","refresh_date":"2011-03-23 14:25:12.0","geom":""}},{"type":"Feature","geometry":{"type":"Point","coordinates":[-170.112876813195,52.7411125606113,0]},"properties":{"name":"Yunaska","x_lat":52.6428,"x_long":170.6286,"mi_label":"Yunaska","refresh_date":"2011-03-23 14:25:12.0","geom":""}},{"type":"Feature","geometry":{"type":"Point","coordinates":[-170.056478977447,52.8928382234569,0]},"properties":{"name":"Carlisle","x_lat":52.8939,"x_long":170.0542,"mi_label":"Carlisle","refresh_date":"2011-03-23 14:25:12.0","geom":""}},{"type":"Feature","geometry":{"type":"Point","coordinates":[-169.946157050503,52.8239323794877,0]},"properties":{"name":"Cleveland","x_lat":52.825,"x_long":169.9439,"mi_label":"Cleveland","refresh_date":"2011-03-23 14:25:12.0","geom":""}},{"type":"Feature","geometry":{"type":"Point","coordinates":[-169.76895369895,53.0639773838604,0]},"properties":{"name":"Uliaga","x_lat":53.065,"x_long":169.7667,"mi_label":"Uliaga","refresh_date":"2011-03-23 14:25:12.0","geom":""}},{"type":"Feature","geometry":{"type":"Point","coordinates":[-169.760528094574,52.8395425027876,0]},"properties":{"name":"Chuginadak East","x_lat":52.8406,"x_long":169.7583,"mi_label":"Chuginadak East","refresh_date":"2011-03-23 14:25:12.0","geom":""}},{"type":"Feature","geometry":{"type":"Point","coordinates":[-169.718940656899,52.972562429784,0]},"properties":{"name":"Kagamil","x_lat":52.9736,"x_long":169.7167,"mi_label":"Kagamil","refresh_date":"2011-03-23 14:25:12.0","geom":""}},{"type":"Feature","geometry":{"type":"Point","coordinates":[-168.695153507561,53.1290458788215,0]},"properties":{"name":"Vsevidof","x_lat":53.13,"x_long":168.6931,"mi_label":"Vsevidof","refresh_date":"2011-03-23 14:25:12.0","geom":""}},{"type":"Feature","geometry":{"type":"Point","coordinates":[-168.540916172881,53.1557571735589,0]},"properties":{"name":"Recheshnoi","x_lat":53.1567,"x_long":168.5389,"mi_label":"Recheshnoi","refresh_date":"2011-03-23 14:25:12.0","geom":""}},{"type":"Feature","geometry":{"type":"Point","coordinates":[-168.181157387753,53.4046982379025,0]},"properties":{"name":"Okmok","x_lat":53.4056,"x_long":168.1792,"mi_label":"Okmok","refresh_date":"2011-03-23 14:25:12.0","geom":""}},{"type":"Feature","geometry":{"type":"Point","coordinates":[-168.031951392856,53.9285369249045,0]},"properties":{"name":"Bogoslof","x_lat":53.9294,"x_long":168.03,"mi_label":"Bogoslof","refresh_date":"2011-03-23 14:25:12.0","geom":""}},{"type":"Feature","geometry":{"type":"Point","coordinates":[-166.980477226045,53.8274490020081,0]},"properties":{"name":"Pakushin Cone","x_lat":53.8283,"x_long":166.9786,"mi_label":"Pakushin Cone","refresh_date":"2011-03-23 14:25:12.0","geom":""}},{"type":"Feature","geometry":{"type":"Point","coordinates":[-166.924690479689,53.8899472032158,0]},"properties":{"name":"Makushin","x_lat":53.8908,"x_long":166.9228,"mi_label":"Makushin","refresh_date":"2011-03-23 14:25:12.0","geom":""}},{"type":"Feature","geometry":{"type":"Point","coordinates":[-166.679098747252,53.9672324922695,0]},"properties":{"name":"Table Top","x_lat":53.9681,"x_long":166.6772,"mi_label":"Table Top","refresh_date":"2011-03-23 14:25:12.0","geom":""}},{"type":"Feature","geometry":{"type":"Point","coordinates":[-166.614685953683,53.9610316109028,0]},"properties":{"name":"Wide Bay Cone","x_lat":53.9619,"x_long":166.6128,"mi_label":"Wide Bay Cone","refresh_date":"2011-03-23 14:25:12.0","geom":""}},{"type":"Feature","geometry":{"type":"Point","coordinates":[-165.988059995743,54.1335300225167,0]},"properties":{"name":"Akutan","x_lat":54.1344,"x_long":165.9861,"mi_label":"Akutan","refresh_date":"2011-03-23 14:25:12.0","geom":""}},{"type":"Feature","geometry":{"type":"Point","coordinates":[-165.661677131013,54.2519372058944,0]},"properties":{"name":"Gilbert","x_lat":54.2528,"x_long":165.6597,"mi_label":"Gilbert","refresh_date":"2011-03-23 14:25:12.0","geom":""}},{"type":"Feature","geometry":{"type":"Point","coordinates":[-164.698672294107,54.5724016813131,0]},"properties":{"name":"Pogromni","x_lat":54.5733,"x_long":164.6967,"mi_label":"Pogromni","refresh_date":"2011-03-23 14:25:12.0","geom":""}},{"type":"Feature","geometry":{"type":"Point","coordinates":[-164.651970639181,54.5174014501343,0]},"properties":{"name":"Westdahl","x_lat":54.5183,"x_long":164.65,"mi_label":"Westdahl","refresh_date":"2011-03-23 14:25:12.0","geom":""}},{"type":"Feature","geometry":{"type":"Point","coordinates":[-164.483074254578,54.6780093080465,0]},"properties":{"name":"Fisher","x_lat":54.6789,"x_long":164.4811,"mi_label":"Fisher","refresh_date":"2011-03-23 14:25:12.0","geom":""}},{"type":"Feature","geometry":{"type":"Point","coordinates":[-163.96869129865,54.7547146034064,0]},"properties":{"name":"Shishaldin","x_lat":54.7556,"x_long":163.9667,"mi_label":"Shishaldin","refresh_date":"2011-03-23 14:25:12.0","geom":""}},{"type":"Feature","geometry":{"type":"Point","coordinates":[-163.724494254964,54.764114017383,0]},"properties":{"name":"Isanotski","x_lat":54.765,"x_long":163.7225,"mi_label":"Isanotski","refresh_date":"2011-03-23 14:25:12.0","geom":""}},{"type":"Feature","geometry":{"type":"Point","coordinates":[-163.590881671947,54.7991161348963,0]},"properties":{"name":"Roundtop","x_lat":54.8,"x_long":163.5889,"mi_label":"Roundtop","refresh_date":"2011-03-23 14:25:12.0","geom":""}},{"type":"Feature","geometry":{"type":"Point","coordinates":[-163.151229495017,55.4230229452902,0]},"properties":{"name":"Amak","x_lat":55.4239,"x_long":163.1492,"mi_label":"Amak","refresh_date":"2011-03-23 14:25:12.0","geom":""}},{"type":"Feature","geometry":{"type":"Point","coordinates":[-162.815907084526,55.0808228079219,0]},"properties":{"name":"Cold Bay","x_lat":55.0817,"x_long":162.8139,"mi_label":"Cold Bay","refresh_date":"2011-03-23 14:25:12.0","geom":""}},{"type":"Feature","geometry":{"type":"Point","coordinates":[-162.273720950543,55.1672262437361,0]},"properties":{"name":"Dutton","x_lat":55.1681,"x_long":162.2717,"mi_label":"Dutton","refresh_date":"2011-03-23 14:25:12.0","geom":""}},{"type":"Feature","geometry":{"type":"Point","coordinates":[-162.080625308276,55.3397365914296,0]},"properties":{"name":"Emmons","x_lat":55.3406,"x_long":162.0786,"mi_label":"Emmons","refresh_date":"2011-03-23 14:25:12.0","geom":""}},{"type":"Feature","geometry":{"type":"Point","coordinates":[-161.993718595451,55.3669426561339,0]},"properties":{"name":"Hague","x_lat":55.3678,"x_long":161.9917,"mi_label":"Hague","refresh_date":"2011-03-23 14:25:12.0","geom":""}},{"type":"Feature","geometry":{"type":"Point","coordinates":[-161.974224099541,55.3724427405876,0]},"properties":{"name":"Double Crater","x_lat":55.3733,"x_long":161.9722,"mi_label":"Double Crater","refresh_date":"2011-03-23 14:25:12.0","geom":""}},{"type":"Feature","geometry":{"type":"Point","coordinates":[-161.889525568002,55.4158458763617,0]},"properties":{"name":"Pavlof","x_lat":55.4167,"x_long":161.8875,"mi_label":"Pavlof","refresh_date":"2011-03-23 14:25:12.0","geom":""}},{"type":"Feature","geometry":{"type":"Point","coordinates":[-161.845119543671,55.4519486941351,0]},"properties":{"name":"Pavlof Sister","x_lat":55.4528,"x_long":161.8431,"mi_label":"Pavlof Sister","refresh_date":"2011-03-23 14:25:12.0","geom":""}},{"type":"Feature","geometry":{"type":"Point","coordinates":[-161.2159268731,55.6402661597359,0]},"properties":{"name":"Mount Dana","x_lat":55.6411,"x_long":161.2139,"mi_label":"Mount Dana","refresh_date":"2011-03-23 14:25:12.0","geom":""}},{"type":"Feature","geometry":{"type":"Point","coordinates":[-159.799266686837,56.0102955129537,0]},"properties":{"name":"Kupreanof","x_lat":56.0111,"x_long":159.7972,"mi_label":"Kupreanof","refresh_date":"2011-03-23 14:25:12.0","geom":""}},{"type":"Feature","geometry":{"type":"Point","coordinates":[-159.39030077117,56.1948031614064,0]},"properties":{"name":"Veniaminof","x_lat":56.1956,"x_long":159.3883,"mi_label":"Veniaminof","refresh_date":"2011-03-23 14:25:12.0","geom":""}},{"type":"Feature","geometry":{"type":"Point","coordinates":[-158.786746235128,56.5517161550267,0]},"properties":{"name":"Black Peak","x_lat":56.5525,"x_long":158.7847,"mi_label":"Black Peak","refresh_date":"2011-03-23 14:25:12.0","geom":""}},{"type":"Feature","geometry":{"type":"Point","coordinates":[-158.154266656883,56.8811301670738,0]},"properties":{"name":"Aniakchak","x_lat":56.8819,"x_long":158.1522,"mi_label":"Aniakchak","refresh_date":"2011-03-23 14:25:12.0","geom":""}},{"type":"Feature","geometry":{"type":"Point","coordinates":[-157.187068173272,57.0178571313514,0]},"properties":{"name":"Yantarni","x_lat":57.0186,"x_long":157.185,"mi_label":"Yantarni","refresh_date":"2011-03-23 14:25:12.0","geom":""}},{"type":"Feature","geometry":{"type":"Point","coordinates":[-156.992063232354,57.13426392267,0]},"properties":{"name":"Chiginagak","x_lat":57.135,"x_long":156.99,"mi_label":"Chiginagak","refresh_date":"2011-03-23 14:25:12.0","geom":""}},{"type":"Feature","geometry":{"type":"Point","coordinates":[-156.747361339601,57.202070440937,0]},"properties":{"name":"Kialagvik","x_lat":57.2028,"x_long":156.7453,"mi_label":"Kialagvik","refresh_date":"2011-03-23 14:25:12.0","geom":""}},{"type":"Feature","geometry":{"type":"Point","coordinates":[-156.51180205596,57.8309767450819,0]},"properties":{"name":"Ukinrek","x_lat":57.8317,"x_long":156.5097,"mi_label":"Ukinrek","refresh_date":"2011-03-23 14:25:12.0","geom":""}},{"type":"Feature","geometry":{"type":"Point","coordinates":[-156.371500380007,57.7278797181574,0]},"properties":{"name":"Ugashik","x_lat":57.7286,"x_long":156.3694,"mi_label":"Ugashik","refresh_date":"2011-03-23 14:25:12.0","geom":""}},{"type":"Feature","geometry":{"type":"Point","coordinates":[-156.37019455745,57.7500804150204,0]},"properties":{"name":"Peulik","x_lat":57.7508,"x_long":156.3681,"mi_label":"Peulik","refresh_date":"2011-03-23 14:25:12.0","geom":""}},{"type":"Feature","geometry":{"type":"Point","coordinates":[-155.670990634601,58.053192831318,0]},"properties":{"name":"Kejulik","x_lat":58.0539,"x_long":155.6689,"mi_label":"Kejulik","refresh_date":"2011-03-23 14:25:12.0","geom":""}},{"type":"Feature","geometry":{"type":"Point","coordinates":[-155.363163131083,58.1714983255329,0]},"properties":{"name":"Martin","x_lat":58.1722,"x_long":155.3611,"mi_label":"Martin","refresh_date":"2011-03-23 14:25:12.0","geom":""}},{"type":"Feature","geometry":{"type":"Point","coordinates":[-155.2548551642,58.194000431201,0]},"properties":{"name":"Mageik","x_lat":58.1947,"x_long":155.2528,"mi_label":"Mageik","refresh_date":"2011-03-23 14:25:12.0","geom":""}},{"type":"Feature","geometry":{"type":"Point","coordinates":[-155.200951293677,58.2457021495018,0]},"properties":{"name":"Cerberus","x_lat":58.2464,"x_long":155.1989,"mi_label":"Cerberus","refresh_date":"2011-03-23 14:25:12.0","geom":""}},{"type":"Feature","geometry":{"type":"Point","coordinates":[-155.173950663727,58.2549023787795,0]},"properties":{"name":"Falling Mt.","x_lat":58.2556,"x_long":155.1719,"mi_label":"Falling Mt.","refresh_date":"2011-03-23 14:25:12.0","geom":""}},{"type":"Feature","geometry":{"type":"Point","coordinates":[-155.158749421241,58.2660027186581,0]},"properties":{"name":"Novarupta","x_lat":58.2667,"x_long":155.1567,"mi_label":"Novarupta","refresh_date":"2011-03-23 14:25:12.0","geom":""}},{"type":"Feature","geometry":{"type":"Point","coordinates":[-155.102048253521,58.2349035502965,0]},"properties":{"name":"Trident","x_lat":58.2356,"x_long":155.1,"mi_label":"Trident","refresh_date":"2011-03-23 14:25:12.0","geom":""}},{"type":"Feature","geometry":{"type":"Point","coordinates":[-155.093742815998,58.3532043220906,0]},"properties":{"name":"Griggs","x_lat":58.3539,"x_long":155.0917,"mi_label":"Griggs","refresh_date":"2011-03-23 14:25:12.0","geom":""}},{"type":"Feature","geometry":{"type":"Point","coordinates":[-154.965342603216,58.2790060871508,0]},"properties":{"name":"Katmai","x_lat":58.2797,"x_long":154.9633,"mi_label":"Katmai","refresh_date":"2011-03-23 14:25:12.0","geom":""}},{"type":"Feature","geometry":{"type":"Point","coordinates":[-154.683926463177,58.334912254977,0]},"properties":{"name":"Snowy","x_lat":58.3356,"x_long":154.6819,"mi_label":"Snowy","refresh_date":"2011-03-23 14:25:12.0","geom":""}},{"type":"Feature","geometry":{"type":"Point","coordinates":[-154.451225714514,58.417117189082,0]},"properties":{"name":"Dennison","x_lat":58.4178,"x_long":154.4492,"mi_label":"Dennison","refresh_date":"2011-03-23 14:25:12.0","geom":""}},{"type":"Feature","geometry":{"type":"Point","coordinates":[-154.357036148265,58.4521184510297,0]},"properties":{"name":"Kukak","x_lat":58.4528,"x_long":154.355,"mi_label":"Kukak","refresh_date":"2011-03-23 14:25:12.0","geom":""}},{"type":"Feature","geometry":{"type":"Point","coordinates":[-154.307636906924,58.4737189490168,0]},"properties":{"name":"Devils Desk","x_lat":58.4744,"x_long":154.3056,"mi_label":"Devils Desk","refresh_date":"2011-03-23 14:25:12.0","geom":""}},{"type":"Feature","geometry":{"type":"Point","coordinates":[-154.029859422296,58.6076223208063,0]},"properties":{"name":"Kaguyak","x_lat":58.6083,"x_long":154.0278,"mi_label":"Kaguyak","refresh_date":"2011-03-23 14:25:12.0","geom":""}},{"type":"Feature","geometry":{"type":"Point","coordinates":[-153.674268788273,58.7693304035495,0]},"properties":{"name":"Fourpeaked","x_lat":58.77,"x_long":153.6722,"mi_label":"Fourpeaked","refresh_date":"2011-03-23 14:25:12.0","geom":""}},{"type":"Feature","geometry":{"type":"Point","coordinates":[-153.54397097832,58.8546330722563,0]},"properties":{"name":"Douglas","x_lat":58.8553,"x_long":153.5419,"mi_label":"Douglas","refresh_date":"2011-03-23 14:25:12.0","geom":""}},{"type":"Feature","geometry":{"type":"Point","coordinates":[-153.435414343117,59.362650514215,0]},"properties":{"name":"Augustine","x_lat":59.3633,"x_long":153.4333,"mi_label":"Augustine","refresh_date":"2011-03-23 14:25:12.0","geom":""}},{"type":"Feature","geometry":{"type":"Point","coordinates":[-153.092531407914,60.0312787834983,0]},"properties":{"name":"Iliamna","x_lat":60.0319,"x_long":153.0903,"mi_label":"Iliamna","refresh_date":"2011-03-23 14:25:12.0","geom":""}},{"type":"Feature","geometry":{"type":"Point","coordinates":[-152.744175231538,60.4847082770647,0]},"properties":{"name":"Redoubt","x_lat":60.4853,"x_long":152.7419,"mi_label":"Redoubt","refresh_date":"2011-03-23 14:25:12.0","geom":""}},{"type":"Feature","geometry":{"type":"Point","coordinates":[-152.253241626311,61.298807186523,0]},"properties":{"name":"Spurr","x_lat":61.2994,"x_long":152.2511,"mi_label":"Spurr","refresh_date":"2011-03-23 14:25:12.0","geom":""}},{"type":"Feature","geometry":{"type":"Point","coordinates":[-152.2396437694,61.2688084347329,0]},"properties":{"name":"Crater Peak","x_lat":61.2694,"x_long":152.2375,"mi_label":"Crater Peak","refresh_date":"2011-03-23 14:25:12.0","geom":""}},{"type":"Feature","geometry":{"type":"Point","coordinates":[-152.413570127865,61.6397077905853,0]},"properties":{"name":"Hayes","x_lat":61.6403,"x_long":152.4114,"mi_label":"Hayes","refresh_date":"2011-03-23 14:25:12.0","geom":""}}]}